[{"orig_city":"London","dest_city":"Alicante","pas":1469812,"orig_lat":51.8746986389,"orig_lon":-0.3683330119,"dest_lat":38.2821998596,"dest_lon":-0.5581560135,"journey_time":53700.0,"journey_time_hrs":14.9166666667},{"orig_city":"Amsterdam","dest_city":"Barcelona","pas":1361453,"orig_lat":52.308601,"orig_lon":4.76389,"dest_lat":41.2971,"dest_lon":2.07846,"journey_time":38820.0,"journey_time_hrs":10.7833333333},{"orig_city":"Amsterdam","dest_city":"Copenhagen","pas":1033488,"orig_lat":52.308601,"orig_lon":4.76389,"dest_lat":55.6179008484,"dest_lon":12.6560001373,"journey_time":38760.0,"journey_time_hrs":10.7666666667},{"orig_city":"Amsterdam","dest_city":"Dublin","pas":1080890,"orig_lat":52.308601,"orig_lon":4.76389,"dest_lat":53.421299,"dest_lon":-6.27007,"journey_time":49680.0,"journey_time_hrs":13.8},{"orig_city":"Amsterdam","dest_city":"London","pas":4485329,"orig_lat":52.308601,"orig_lon":4.76389,"dest_lat":51.8849983215,"dest_lon":0.2349999994,"journey_time":16200.0,"journey_time_hrs":4.5},{"orig_city":"Amsterdam","dest_city":"Madrid","pas":1021986,"orig_lat":52.308601,"orig_lon":4.76389,"dest_lat":40.471926,"dest_lon":-3.56264,"journey_time":50220.0,"journey_time_hrs":13.95},{"orig_city":"Manchester","dest_city":"Amsterdam","pas":1042449,"orig_lat":53.3536987305,"orig_lon":-2.2749500275,"dest_lat":52.308601,"dest_lon":4.76389,"journey_time":26520.0,"journey_time_hrs":7.3666666667},{"orig_city":"Amsterdam","dest_city":"Milan","pas":1193517,"orig_lat":52.308601,"orig_lon":4.76389,"dest_lat":45.445099,"dest_lon":9.27674,"journey_time":47700.0,"journey_time_hrs":13.25},{"orig_city":"Amsterdam","dest_city":"Paris","pas":1417425,"orig_lat":52.308601,"orig_lon":4.76389,"dest_lat":48.7233333,"dest_lon":2.3794444,"journey_time":12060.0,"journey_time_hrs":3.35},{"orig_city":"Rome","dest_city":"Amsterdam","pas":1108389,"orig_lat":41.8002778,"orig_lon":12.2388889,"dest_lat":52.308601,"dest_lon":4.76389,"journey_time":55680.0,"journey_time_hrs":15.4666666667},{"orig_city":"Brussels","dest_city":"Barcelona","pas":1017360,"orig_lat":50.459202,"orig_lon":4.45382,"dest_lat":41.2971,"dest_lon":2.07846,"journey_time":32040.0,"journey_time_hrs":8.9},{"orig_city":"London","dest_city":"Barcelona","pas":3113005,"orig_lat":51.8849983215,"orig_lon":0.2349999994,"dest_lat":41.2971,"dest_lon":2.07846,"journey_time":35220.0,"journey_time_hrs":9.7833333333},{"orig_city":"Madrid","dest_city":"Barcelona","pas":2342016,"orig_lat":40.471926,"orig_lon":-3.56264,"dest_lat":41.2971,"dest_lon":2.07846,"journey_time":10200.0,"journey_time_hrs":2.8333333333},{"orig_city":"Paris","dest_city":"Barcelona","pas":2427509,"orig_lat":48.7233333,"orig_lon":2.3794444,"dest_lat":41.2971,"dest_lon":2.07846,"journey_time":23940.0,"journey_time_hrs":6.65},{"orig_city":"Rome","dest_city":"Barcelona","pas":1222627,"orig_lat":41.8002778,"orig_lon":12.2388889,"dest_lat":41.2971,"dest_lon":2.07846,"journey_time":51720.0,"journey_time_hrs":14.3666666667},{"orig_city":"London","dest_city":"Belfast","pas":2505627,"orig_lat":51.505299,"orig_lon":0.055278,"dest_lat":54.6180992126,"dest_lon":-5.8724999428,"journey_time":34020.0,"journey_time_hrs":9.45},{"orig_city":"Oslo","dest_city":"Bergen","pas":1984934,"orig_lat":60.193901062,"orig_lon":11.100399971,"dest_lat":60.29339981,"dest_lon":5.218140125,"journey_time":23520.0,"journey_time_hrs":6.5333333333},{"orig_city":"Cologne","dest_city":"Berlin","pas":1657452,"orig_lat":50.8658981323,"orig_lon":7.1427397728,"dest_lat":52.380001,"dest_lon":13.5225,"journey_time":null,"journey_time_hrs":null},{"orig_city":"D\u00fcsseldorf","dest_city":"Berlin","pas":1142253,"orig_lat":51.289501,"orig_lon":6.76678,"dest_lat":52.5597,"dest_lon":13.2877,"journey_time":15180.0,"journey_time_hrs":4.2166666667},{"orig_city":"Frankfurt am Main","dest_city":"Berlin","pas":1955873,"orig_lat":50.033333,"orig_lon":8.570556,"dest_lat":52.5597,"dest_lon":13.2877,"journey_time":15480.0,"journey_time_hrs":4.3},{"orig_city":"Berlin","dest_city":"London","pas":1992158,"orig_lat":52.5597,"orig_lon":13.2877,"dest_lat":51.505299,"dest_lon":0.055278,"journey_time":33720.0,"journey_time_hrs":9.3666666667},{"orig_city":"Munich","dest_city":"Berlin","pas":2060593,"orig_lat":48.353802,"orig_lon":11.7861,"dest_lat":52.380001,"dest_lon":13.5225,"journey_time":16560.0,"journey_time_hrs":4.6},{"orig_city":"Paris","dest_city":"Berlin","pas":1163217,"orig_lat":48.7233333,"orig_lon":2.3794444,"dest_lat":52.380001,"dest_lon":13.5225,"journey_time":35820.0,"journey_time_hrs":9.95},{"orig_city":"Berlin","dest_city":"Stuttgart","pas":1036882,"orig_lat":52.5597,"orig_lon":13.2877,"dest_lat":48.6898994446,"dest_lon":9.2219600678,"journey_time":21960.0,"journey_time_hrs":6.1},{"orig_city":"Zurich","dest_city":"Berlin","pas":1093680,"orig_lat":47.464699,"orig_lon":8.54917,"dest_lat":52.380001,"dest_lon":13.5225,"journey_time":34020.0,"journey_time_hrs":9.45},{"orig_city":"Bordeaux","dest_city":"Paris","pas":1517848,"orig_lat":44.8283004761,"orig_lon":-0.7155560255,"dest_lat":49.012798,"dest_lon":2.55,"journey_time":7740.0,"journey_time_hrs":2.15},{"orig_city":"Madrid","dest_city":"Brussels","pas":1083108,"orig_lat":40.471926,"orig_lon":-3.56264,"dest_lat":50.459202,"dest_lon":4.45382,"journey_time":41760.0,"journey_time_hrs":11.6},{"orig_city":"Bucharest","dest_city":"London","pas":1188801,"orig_lat":44.5711111,"orig_lon":26.085,"dest_lat":51.148102,"dest_lon":-0.190278,"journey_time":118980.0,"journey_time_hrs":33.05},{"orig_city":"London","dest_city":"Budapest","pas":1511734,"orig_lat":51.148102,"orig_lon":-0.190278,"dest_lat":47.42976,"dest_lon":19.261093,"journey_time":54540.0,"journey_time_hrs":15.15},{"orig_city":"Cagliari","dest_city":"Rome","pas":1082033,"orig_lat":39.251499,"orig_lon":9.05428,"dest_lat":41.7994,"dest_lon":12.5949,"journey_time":null,"journey_time_hrs":null},{"orig_city":"Milan","dest_city":"Catania","pas":1542827,"orig_lat":45.445099,"orig_lon":9.27674,"dest_lat":37.466801,"dest_lon":15.0664,"journey_time":44880.0,"journey_time_hrs":12.4666666667},{"orig_city":"Rome","dest_city":"Catania","pas":2009150,"orig_lat":41.8002778,"orig_lon":12.2388889,"dest_lat":37.466801,"dest_lon":15.0664,"journey_time":32880.0,"journey_time_hrs":9.1333333333},{"orig_city":"London","dest_city":"Copenhagen","pas":2321698,"orig_lat":51.8849983215,"orig_lon":0.2349999994,"dest_lat":55.6179008484,"dest_lon":12.6560001373,"journey_time":54060.0,"journey_time_hrs":15.0166666667},{"orig_city":"Oslo","dest_city":"Copenhagen","pas":1544456,"orig_lat":60.193901062,"orig_lon":11.100399971,"dest_lat":55.6179008484,"dest_lon":12.6560001373,"journey_time":24180.0,"journey_time_hrs":6.7166666667},{"orig_city":"Stockholm","dest_city":"Copenhagen","pas":1507905,"orig_lat":59.6519012451,"orig_lon":17.9186000824,"dest_lat":55.6179008484,"dest_lon":12.6560001373,"journey_time":17880.0,"journey_time_hrs":4.9666666667},{"orig_city":"Dublin","dest_city":"London","pas":4889549,"orig_lat":53.421299,"orig_lon":-6.27007,"dest_lat":51.8746986389,"dest_lon":-0.3683330119,"journey_time":28500.0,"journey_time_hrs":7.9166666667},{"orig_city":"D\u00fcsseldorf","dest_city":"Munich","pas":1552886,"orig_lat":51.289501,"orig_lon":6.76678,"dest_lat":48.353802,"dest_lon":11.7861,"journey_time":17220.0,"journey_time_hrs":4.7833333333},{"orig_city":"Edinburgh","dest_city":"London","pas":3430196,"orig_lat":55.9500007629,"orig_lon":-3.3724999428,"dest_lat":51.8746986389,"dest_lon":-0.3683330119,"journey_time":24000.0,"journey_time_hrs":6.6666666667},{"orig_city":"London","dest_city":"Faro","pas":1459687,"orig_lat":51.8746986389,"orig_lon":-0.3683330119,"dest_lat":37.0144004822,"dest_lon":-7.9659099579,"journey_time":89520.0,"journey_time_hrs":24.8666666667},{"orig_city":"Hamburg","dest_city":"Frankfurt am Main","pas":1395100,"orig_lat":53.6304016113,"orig_lon":9.9882297516,"dest_lat":50.033333,"dest_lon":8.570556,"journey_time":13680.0,"journey_time_hrs":3.8},{"orig_city":"Frankfurt am Main","dest_city":"London","pas":1858750,"orig_lat":49.9487,"orig_lon":7.26389,"dest_lat":51.8849983215,"dest_lon":0.2349999994,"journey_time":20820.0,"journey_time_hrs":5.7833333333},{"orig_city":"Frankfurt am Main","dest_city":"Madrid","pas":1043072,"orig_lat":50.033333,"orig_lon":8.570556,"dest_lat":40.471926,"dest_lon":-3.56264,"journey_time":49860.0,"journey_time_hrs":13.85},{"orig_city":"Munich","dest_city":"Frankfurt am Main","pas":1170764,"orig_lat":48.353802,"orig_lon":11.7861,"dest_lat":50.033333,"dest_lon":8.570556,"journey_time":12420.0,"journey_time_hrs":3.45},{"orig_city":"Vienna","dest_city":"Frankfurt am Main","pas":1178623,"orig_lat":48.1102981567,"orig_lon":16.5697002411,"dest_lat":50.033333,"dest_lon":8.570556,"journey_time":32280.0,"journey_time_hrs":8.9666666667},{"orig_city":"Geneva","dest_city":"London","pas":2381646,"orig_lat":46.2380981445,"orig_lon":6.1089501381,"dest_lat":51.505299,"dest_lon":0.055278,"journey_time":27600.0,"journey_time_hrs":7.6666666667},{"orig_city":"Geneva","dest_city":"Paris","pas":1069540,"orig_lat":46.2380981445,"orig_lon":6.1089501381,"dest_lat":48.7233333,"dest_lon":2.3794444,"journey_time":13680.0,"journey_time_hrs":3.8},{"orig_city":"London","dest_city":"Glasgow","pas":2520120,"orig_lat":51.505299,"orig_lon":0.055278,"dest_lat":55.871899,"dest_lon":-4.43306,"journey_time":16740.0,"journey_time_hrs":4.65},{"orig_city":"Hamburg","dest_city":"London","pas":1033424,"orig_lat":53.6304016113,"orig_lon":9.9882297516,"dest_lat":51.8746986389,"dest_lon":-0.3683330119,"journey_time":36600.0,"journey_time_hrs":10.1666666667},{"orig_city":"Hamburg","dest_city":"Munich","pas":1739908,"orig_lat":53.6304016113,"orig_lon":9.9882297516,"dest_lat":48.353802,"dest_lon":11.7861,"journey_time":22080.0,"journey_time_hrs":6.1333333333},{"orig_city":"Helsinki","dest_city":"Stockholm","pas":1320326,"orig_lat":60.317199707,"orig_lon":24.963300705,"dest_lat":59.3544006348,"dest_lon":17.9416999817,"journey_time":null,"journey_time_hrs":null},{"orig_city":"London","dest_city":"Lisbon","pas":1888943,"orig_lat":51.8746986389,"orig_lon":-0.3683330119,"dest_lat":38.7813,"dest_lon":-9.13592,"journey_time":78720.0,"journey_time_hrs":21.8666666667},{"orig_city":"Lisbon","dest_city":"Madrid","pas":1427452,"orig_lat":38.7813,"orig_lon":-9.13592,"dest_lat":40.471926,"dest_lon":-3.56264,"journey_time":33360.0,"journey_time_hrs":9.2666666667},{"orig_city":"Paris","dest_city":"Lisbon","pas":1932051,"orig_lat":49.012798,"orig_lon":2.55,"dest_lat":38.7813,"dest_lon":-9.13592,"journey_time":66360.0,"journey_time_hrs":18.4333333333},{"orig_city":"Porto","dest_city":"Lisbon","pas":1090649,"orig_lat":41.2481002808,"orig_lon":-8.6813898086,"dest_lat":38.7813,"dest_lon":-9.13592,"journey_time":9720.0,"journey_time_hrs":2.7},{"orig_city":"London","dest_city":"Madrid","pas":3023875,"orig_lat":51.8746986389,"orig_lon":-0.3683330119,"dest_lat":40.471926,"dest_lon":-3.56264,"journey_time":44220.0,"journey_time_hrs":12.2833333333},{"orig_city":"Milan","dest_city":"London","pas":2411267,"orig_lat":45.6306,"orig_lon":8.72811,"dest_lat":51.8746986389,"dest_lon":-0.3683330119,"journey_time":37860.0,"journey_time_hrs":10.5166666667},{"orig_city":"Munich","dest_city":"London","pas":1693289,"orig_lat":48.353802,"orig_lon":11.7861,"dest_lat":51.8746986389,"dest_lon":-0.3683330119,"journey_time":33480.0,"journey_time_hrs":9.3},{"orig_city":"London","dest_city":"M\u00e1laga","pas":2021688,"orig_lat":51.505299,"orig_lon":0.055278,"dest_lat":36.6749000549,"dest_lon":-4.4991102219,"journey_time":56280.0,"journey_time_hrs":15.6333333333},{"orig_city":"London","dest_city":"Nice","pas":1457055,"orig_lat":51.8849983215,"orig_lon":0.2349999994,"dest_lat":43.6584014893,"dest_lon":7.2158699036,"journey_time":35340.0,"journey_time_hrs":9.8166666667},{"orig_city":"Oslo","dest_city":"London","pas":1380994,"orig_lat":60.193901062,"orig_lon":11.100399971,"dest_lat":51.8849983215,"dest_lon":0.2349999994,"journey_time":79080.0,"journey_time_hrs":21.9666666667},{"orig_city":"London","dest_city":"Paris","pas":2175943,"orig_lat":51.4706,"orig_lon":-0.461941,"dest_lat":48.7233333,"dest_lon":2.3794444,"journey_time":8400.0,"journey_time_hrs":2.3333333333},{"orig_city":"London","dest_city":"Prague","pas":1211121,"orig_lat":51.8746986389,"orig_lon":-0.3683330119,"dest_lat":50.1008,"dest_lon":14.26,"journey_time":43500.0,"journey_time_hrs":12.0833333333},{"orig_city":"London","dest_city":"Rome","pas":2469490,"orig_lat":51.505299,"orig_lon":0.055278,"dest_lat":41.8002778,"dest_lon":12.2388889,"journey_time":51960.0,"journey_time_hrs":14.4333333333},{"orig_city":"London","dest_city":"Stockholm","pas":1510453,"orig_lat":51.148102,"orig_lon":-0.190278,"dest_lat":59.6519012451,"dest_lon":17.9186000824,"journey_time":68940.0,"journey_time_hrs":19.15},{"orig_city":"Venice","dest_city":"London","pas":1040801,"orig_lat":45.505299,"orig_lon":12.3519,"dest_lat":51.8746986389,"dest_lon":-0.3683330119,"journey_time":53400.0,"journey_time_hrs":14.8333333333},{"orig_city":"London","dest_city":"Vienna","pas":1114208,"orig_lat":51.8849983215,"orig_lon":0.2349999994,"dest_lat":48.1102981567,"dest_lon":16.5697002411,"journey_time":44760.0,"journey_time_hrs":12.4333333333},{"orig_city":"Warsaw","dest_city":"London","pas":1302462,"orig_lat":52.451099,"orig_lon":20.6518,"dest_lat":51.8849983215,"dest_lon":0.2349999994,"journey_time":54600.0,"journey_time_hrs":15.1666666667},{"orig_city":"Zurich","dest_city":"London","pas":1870881,"orig_lat":47.464699,"orig_lon":8.54917,"dest_lat":51.148102,"dest_lon":-0.190278,"journey_time":28440.0,"journey_time_hrs":7.9},{"orig_city":"Lule\u00e5","dest_city":"Stockholm","pas":1064559,"orig_lat":65.543800354,"orig_lon":22.1219997406,"dest_lat":59.6519012451,"dest_lon":17.9186000824,"journey_time":38280.0,"journey_time_hrs":10.6333333333},{"orig_city":"Paris","dest_city":"Madrid","pas":2244888,"orig_lat":49.012798,"orig_lon":2.55,"dest_lat":40.471926,"dest_lon":-3.56264,"journey_time":32940.0,"journey_time_hrs":9.15},{"orig_city":"Rome","dest_city":"Madrid","pas":1479056,"orig_lat":41.7994,"orig_lon":12.5949,"dest_lat":40.471926,"dest_lon":-3.56264,"journey_time":63120.0,"journey_time_hrs":17.5333333333},{"orig_city":"Stockholm","dest_city":"Malm\u00f6","pas":1216814,"orig_lat":59.3544006348,"orig_lon":17.9416999817,"dest_lat":55.536305364,"dest_lon":13.3761978149,"journey_time":15720.0,"journey_time_hrs":4.3666666667},{"orig_city":"Paris","dest_city":"Marseille","pas":1632328,"orig_lat":49.012798,"orig_lon":2.55,"dest_lat":43.439271922,"dest_lon":5.2214241028,"journey_time":12120.0,"journey_time_hrs":3.3666666667},{"orig_city":"Paris","dest_city":"Milan","pas":1864281,"orig_lat":48.7233333,"orig_lon":2.3794444,"dest_lat":45.6306,"dest_lon":8.72811,"journey_time":29040.0,"journey_time_hrs":8.0666666667},{"orig_city":"Milan","dest_city":"Rome","pas":1265294,"orig_lat":45.6306,"orig_lon":8.72811,"dest_lat":41.8002778,"dest_lon":12.2388889,"journey_time":11400.0,"journey_time_hrs":3.1666666667},{"orig_city":"Nice","dest_city":"Paris","pas":3079426,"orig_lat":43.6584014893,"orig_lon":7.2158699036,"dest_lat":49.012798,"dest_lon":2.55,"journey_time":21660.0,"journey_time_hrs":6.0166666667},{"orig_city":"Stavanger","dest_city":"Oslo","pas":1600223,"orig_lat":58.876701354,"orig_lon":5.6377801895,"dest_lat":60.193901062,"dest_lon":11.100399971,"journey_time":27480.0,"journey_time_hrs":7.6333333333},{"orig_city":"Stockholm","dest_city":"Oslo","pas":1396165,"orig_lat":59.6519012451,"orig_lon":17.9186000824,"dest_lat":60.193901062,"dest_lon":11.100399971,"journey_time":20580.0,"journey_time_hrs":5.7166666667},{"orig_city":"Trondheim","dest_city":"Oslo","pas":2087108,"orig_lat":63.4578018,"orig_lon":10.9239998,"dest_lat":60.193901062,"dest_lon":11.100399971,"journey_time":24300.0,"journey_time_hrs":6.75},{"orig_city":"Palermo","dest_city":"Rome","pas":1589075,"orig_lat":38.175999,"orig_lon":13.091,"dest_lat":41.8002778,"dest_lon":12.2388889,"journey_time":41400.0,"journey_time_hrs":11.5},{"orig_city":"Porto","dest_city":"Paris","pas":1073108,"orig_lat":41.2481002808,"orig_lon":-8.6813898086,"dest_lat":49.012798,"dest_lon":2.55,"journey_time":62460.0,"journey_time_hrs":17.35},{"orig_city":"Paris","dest_city":"Rome","pas":1809254,"orig_lat":48.7233333,"orig_lon":2.3794444,"dest_lat":41.8002778,"dest_lon":12.2388889,"journey_time":40440.0,"journey_time_hrs":11.2333333333},{"orig_city":"Toulouse","dest_city":"Paris","pas":3247695,"orig_lat":43.629101,"orig_lon":1.36382,"dest_lat":49.012798,"dest_lon":2.55,"journey_time":15960.0,"journey_time_hrs":4.4333333333},{"orig_city":"Paris","dest_city":"Venice","pas":1158932,"orig_lat":48.7233333,"orig_lon":2.3794444,"dest_lat":45.505299,"dest_lon":12.3519,"journey_time":42720.0,"journey_time_hrs":11.8666666667}]